{"0": {"id": 20, "name": "Raven Smith", "address": "018 Stephens Wells\nEast David, TX 87718", "latitude": "-33.914822", "longitude": "119.745798"}, "1": {"id": 37, "name": "Shane Sutton", "address": "53631 Peters Springs\nNorth Jaclynhaven, NM 33802", "latitude": "22.2480065", "longitude": "-118.980497"}, "2": {"id": 19, "name": "Robert Douglas", "address": "05725 Odonnell Station Suite 195\nJacksonburgh, TN 48358", "latitude": "88.8825275", "longitude": "-24.353129"}, "3": {"id": 11, "name": "Vanessa Lee", "address": "732 Freeman Village Suite 185\nNorth Lindaburgh, MA 78269", "latitude": "83.297843", "longitude": "-65.284317"}, "4": {"id": 62, "name": "Carl Black", "address": "233 Mary Shoals Suite 386\nDillonland, AL 33526", "latitude": "16.2096225", "longitude": "18.790319"}, "5": {"id": 37, "name": "William Cross", "address": "USNV Molina\nFPO AE 48705", "latitude": "54.971726", "longitude": "-101.908781"}, "6": {"id": 30, "name": "Joe Rodriguez", "address": "PSC 0464, Box 0220\nAPO AA 91565", "latitude": "-58.362185", "longitude": "172.023779"}, "7": {"id": 28, "name": "Christopher Santos", "address": "5214 Cole Springs Suite 379\nLarryton, MT 51354", "latitude": "47.7582905", "longitude": "-78.089758"}, "8": {"id": 20, "name": "Charles Dixon", "address": "308 Rivera Throughway\nNancyberg, MO 67623", "latitude": "24.734767", "longitude": "16.273642"}, "9": {"id": 3, "name": "Nathaniel Johnson", "address": "37114 Amanda Drive\nSouth John, NV 68120", "latitude": "-5.138741", "longitude": "-122.367191"}}